stop_id,stop_lat,stop_lon,stop_name,has_shelter,imd_id
020693,38.654131,-9.151800,LARANJEIRO R D DUARTE (PARAL R EUCALIP),0,3
020435,38.647405,-9.229558,COSTA CAPARICA (IC 20) CEMITÉRIO,0,6
020487,38.576518,-9.193447,FONTE TELHA (BRIGADA FISCAL),1,11
020998,38.577988,-9.186341,F TELHA (AV MAR 223 (X) AV E MONIZ(GOLF),0,12
020800,38.572559,-9.195136,FONTE TELHA (PRAIA),1,13
020652,38.647440,-9.206420,LAZARIM PILOTOS EN10-1 (R BART DIAS),0,14
020647,38.645907,-9.216491,ESTRELINHA (EN 10-1 674) CAPUCHOS,1,15
020445,38.653653,-9.218123,FUNCHALINHO (NÓ),1,16
020066,38.674184,-9.161883,COVA PIEDADE R LIBERDADE 56C (URPICA),1,17
020067,38.672144,-9.161026,COVA PIEDADE R LIBERDADE 63 (ROTUNDA),0,18
020737,38.645208,-9.232095,COSTA CAPARICA R DR HORÁCIO S LOURO,1,19
020423,38.608947,-9.187558,CH CAPARICA (R ANTÓNIO ANDRADE1215),1,20
020337,38.617469,-9.192584,CH CAPARICA (R ANTÓNIO ANDRADE) CENTRO,1,21
020335,38.620663,-9.194170,CH CAPARICA R DR OLIVEIRA FEIJÃO 1074,1,22
020421,38.605076,-9.186110,CH CAPARICA R PEDRO COSTA 13 (ESCOLA),0,23
020322,38.646155,-9.199322,LAZARIM (R S MACÁRIO772)QTA S FRANCISCO,1,24
020710,38.644440,-9.195944,MORGADINHA (QTA V GROU) R MOV FOR ARM 85,0,25
020277,38.672072,-9.175100,AV TORRADO SILVA (HOSPITAL G ORTA),1,26
020291,38.672399,-9.175129,PRAGAL (AVª TORRADO SILVA) FTE HOSPITAL G ORTA,1,27
020451,38.648144,-9.235091,COSTA CAP AV AF ALBUQ 8A (X) R MACAU,0,28
021006,38.666363,-9.187212,Bº F FOMENTO (R S LOURENÇO 52) POENTE,1,33
020256,38.667830,-9.188285,Bº F FOMENTO (R 3 VALES N65),1,34
020031,38.682479,-9.151957,ALMADA PRAÇA GIL VICENTE 4 (ESCOLA),1,42
020199,38.682513,-9.152592,ALMADA (PÇA GIL VICENTE) ESCOLA,1,43
020492,38.684336,-9.147152,CACILHAS (AV 25 ABRIL N3A),1,48
020047,38.679178,-9.158630,AV D NUNO ÁLV PEREIRA PÇA S J BAPTISTA,0,49
020399,38.679011,-9.158536,AV D NUNO ÁLV PEREIRA PÇA S J BAPTISTA,0,50
020491,38.684130,-9.147142,CACILHAS (AV 25 ABRIL N3A),0,51
020033,38.683845,-9.150319,CACILHAS AV 25 ABRIL 45C (SEG SOCIAL),1,52
020041,38.684092,-9.150315,CACILHAS (AV 25 ABRIL N30),1,53
020059,38.679111,-9.156873,ALMADA (PÇA S JOÃO BAPTISTA N3),1,59
020094,38.660010,-9.162064,Bº B GONÇALVES (R ARY SANTOS 4B),1,60
020092,38.658200,-9.161859,R ARY SANTOS 16 - C.COMERCIAL,0,61
020290,38.673184,-9.172504,PRAGAL (R DIREITA PRAGAL LTE 10),1,84
027999,38.666619,-9.179919,PRAGAL (AV TORRADO SILVA) ESTAÇÃO,1,85
020276,38.666620,-9.180547,PRAGAL (AV TORRADO SILVA) ESTAÇÃO,1,86
020069,38.668954,-9.159298,COVA PIEDADE AV 23 JUL (X) ESTR BREJO,1,87
020957,38.668562,-9.159409,COVA PIEDADE (AV 23 JULHO N4),0,88
021011,38.668287,-9.159469,COVA PIEDADE (AV 23 JULHO) POSTO COMB,1,89
020447,38.657004,-9.200668,MONTE CAPARICA (IC 20) ESC CASAS VELHAS,1,192
020319,38.656507,-9.201587,CASAS VELHAS (DIA A DIA),1,193
020684,38.651010,-9.153007,LARANJEIRO (AV 23 JULHO) TST,1,252
020533,38.670696,-9.157397,COVA PIEDADE (LGO 5 OUTUBRO) JARDIM,1,262
020497,38.673515,-9.154358,COVA PIEDADE (ELVAS) HOSPITAL,0,263
020494,38.680051,-9.149468,CACILHAS (AV ALIANÇA POVO MFA) LISNAVE,1,264
020740,38.671444,-9.156820,CV PIEDADER ANT J GOMES64B (LGO 5 OUT),1,265
020495,38.676806,-9.151363,CACILHAS (AV ALIANÇA POVO MFA 64) ESCOLA,1,266
020944,38.660184,-9.157000,LARANJEIRO (AV 23 JULHO 343B),1,267
020538,38.674075,-9.153528,COVA PIEDADE CARAMUJO (PARQUE TST/ETAR),0,268
020682,38.656212,-9.154410,LARANJEIRO AV 23 JULHO (OÁSIS),1,269
020681,38.656443,-9.154269,LARANJEIRO AV 23 JULHO (OÁSIS),1,270
020077,38.667792,-9.159374,COVA PIEDADE (AV 23 JULHO) POSTO COMB,1,272
020499,38.664210,-9.159643,LARANJEIRO (AV 23 JULHO),1,274
020496,38.676872,-9.151610,CACILHAS (AV ALIANÇA POVO MFA 64) ESCOLA,1,275
020493,38.679915,-9.149931,CACILHAS (AV ALIANÇA POVO MFA) LISNAVE,1,276
020663,38.642052,-9.232110,COSTA CAPARICA (AV D SEBASTIÃO 10),0,278
020639,38.643519,-9.232600,Av. Dr. Aresta Branco (X) Rua Ercília Costa,1,279
020733,38.643986,-9.233138,C CAPARICA (AV DR ARESTA BRANCO) MERCADO,0,281
020641,38.646650,-9.230673,COSTA CAPARICA (IC 20) CEMITÉRIO,1,282
020117,38.675477,-9.158442,ALMADA R RAINHA D LEONOR 23 (ESCOLA),1,285
020106,38.674025,-9.159194,COVA PIEDADE (AV RAINHA D LEONOR 16),1,286
020107,38.675928,-9.157937,COVA PIEDADE (AV RAINHA D LEONOR 13),1,287
020081,38.673787,-9.161493,R LIBERDADE 51 - RINGUE POMBAL,1,288
020104,38.672154,-9.160127,COVA PIEDADE (AV RAINHA D LEONOR 59),0,289
020103,38.672067,-9.160004,COVA PIEDADE (AV RAINHA D LEONOR 59),0,290
020105,38.673584,-9.159219,COVA PIEDADE (AV RAINHA D LEONOR 16),1,291
020058,38.677388,-9.156244,ALMADA (R RAINHA D LEONOR) PARQUE URBANO,1,292
020057,38.677351,-9.156017,ALMADA (R RAINHA D LEONOR) PARQUE URBANO,1,293
020115,38.681780,-9.152449,ALMADA (R D SANCHO I 2) ESCOLA CACILHAS,1,294
020111,38.679673,-9.152932,ALMADA (R D SANCHO I N25A),1,295
020112,38.679573,-9.152837,ALMADA (R D SANCHO I N25A),1,296
020743,38.674548,-9.159612,COVA PIEDADE (R PEDRO NUNES N6),0,297
020100,38.668894,-9.162346,COVA PIEDADE (LGO ANTERO QUENTAL 11),1,298
020099,38.668980,-9.162206,COVA PIEDADE (LGO ANTERO QUENTAL 11),1,299
020043,38.682131,-9.152925,ALMADA (AV D AFONSO HENRIQUES 2),0,300
020110,38.678266,-9.153519,R D SANCHO I 23 (EXTERNATO/ C SAÚDE),0,301
020109,38.678200,-9.153411,R D SANCHO I 23 (EXTERNATO/ C SAÚDE),1,302
020746,38.674470,-9.162485,COVA PIEDADE R RAMIRO FERRÃO (URPICA),1,305
020744,38.674388,-9.159565,COVA PIEDADE (R PEDRO NUNES N6),0,306
020009,38.676531,-9.171115,ALMADA (LARGO CRISTO REI) TERMINAL,1,307
020569,38.664669,-9.254807,COVA VAPOR (R PARQUE 149) POSTO EDP,1,309
020401,38.681028,-9.154403,ALMADA (AV D AF HENRIQUES 21),0,310
020045,38.681175,-9.154534,ALMADA AV D AFONSO HENRIQUES 18 (CTT),0,311
020260,38.674494,-9.187507,Bº F FOMENTO (R MIRAD ALFAZINA) TERMINAL,0,313
020298,38.677454,-9.197159,BANÁTICA (TERMINAL) R CONS MAN LUIS FER,0,315
020717,38.639521,-9.182247,QTA CERIEIRA R QTA CERIEIRA 52 (ESCOLA),1,322
020286,38.669411,-9.162861,CV PIEDADE (R VERA CRUZ) (X) PR CEILÃO,0,323
020039,38.685053,-9.147505,CACILHAS (AV 25 ABRIL N6),0,325
020072,38.667856,-9.164638,CV PIEDADE R SAMEIRO ANTUNES FARMÁCIA,1,326
020287,38.668648,-9.164113,COVA PIEDADE (R CMD OLIVEIRA CARMO 24),0,327
020071,38.668000,-9.164574,CV PIEDADE R SAMEIRO ANTUNES FARMÁCIA,1,328
021013,38.667887,-9.164140,R CONCEIÇÃO SAMEIRO ANTUNES 18 - C SUL,1,329
020284,38.669677,-9.164927,COVA PIEDADE (R LUISA SIGEIA 4),0,331
020283,38.669628,-9.164768,COVA PIEDADE (R LUISA SIGEIA 4),0,332
020035,38.684904,-9.147329,CACILHAS (AV 25 ABRIL N3A),0,333
020280,38.672505,-9.170012,PRAGAL R CIDADE OSTRAVA 8 (J FREG),0,334
020279,38.672449,-9.170088,PRAGAL R CIDADE OSTRAVA 8 (J FREG),0,335
020427,38.675222,-9.167197,ALMADA (R D JOÃO CASTRO 84),1,336
020064,38.675736,-9.163709,ALMADA (R CAETANO M BATALHA N9),0,337
020407,38.673813,-9.169745,PRAGAL (R DIREITA PRAGAL N26),1,338
020063,38.675656,-9.163751,ALMADA (R CAETANO M BATALHA N9),0,339
020061,38.677445,-9.162829,ALMADA (AV D NUNO ÁLVARES PEREIRA 56),0,340
020405,38.675627,-9.166987,ALMADA (R D JOÃO CASTRO N78),1,341
020425,38.673676,-9.169682,R DIREITA PRAGAL (ESCOLA SECUNDÁRIA),1,342
020083,38.677605,-9.161951,ALMADA (AV D NUNO ÁLVARES PEREIRA 45),1,343
020012,38.678575,-9.167803,ALMADA (AV CRISTO REI) NÚCLEO ÁGUA,0,344
020021,38.680526,-9.159992,ALMADA (R CAPITÃO LEITÃO N79),0,345
020023,38.681587,-9.159455,ALMADA (R CAPITÃO LEITÃO N43A),0,347
020028,38.682336,-9.156614,ALMADA (R BERNARDO FRANCISCO COSTA 73),0,348
020013,38.677382,-9.167238,ALMADA (AV CRISTO REI N41),0,349
020014,38.677377,-9.167545,ALMADA (AV CRISTO REI N41),0,350
020015,38.678157,-9.165267,ALMADA (AV CRISTO REI N17B),0,351
020055,38.679063,-9.166246,ALMADA (R FERNÃO LOURENÇO 57B)SEMINÁRIO,0,352
020054,38.679509,-9.164329,ALMADA (R FERNÃO LOURENÇO 45) SEMINÁRIO,0,353
020049,38.679556,-9.160141,ALMADA (R MENDO G SEABRA N3B),0,354
020017,38.678776,-9.163412,ALMADA (LGO INF D ANTÓNIO N2),0,355
020019,38.678908,-9.161150,ALMADA (R CAPITÃO LEITÃO N107),0,356
020281,38.670607,-9.165406,COVA PIEDADE (R RAMIRO FERRÃO 38),0,358
020101,38.671130,-9.160836,COVA PIEDADE (R CABO B ESPERANÇA 7A),0,359
020119,38.670891,-9.161346,COVA PIEDADE (R CABO B ESPERANÇA 13),0,362
020748,38.674493,-9.164323,R RAMIRO FERRÃO ESCOLA SEC A ANDRADE,0,363
020761,38.671831,-9.165680,COVA PIEDADE (R RAMIRO FERRÃO) PARQUE,0,364
020749,38.673822,-9.165438,COVA PIEDADE (R RAMIRO FERRÃO 26),0,365
020282,38.670512,-9.165524,COVA PIEDADE (R RAMIRO FERRÃO 38),0,366
020751,38.671670,-9.165836,COVA PIEDADE (R RAMIRO FERRÃO 47),0,367
020594,38.650486,-9.188611,SOBREDA (EN10-1) (X) TEXUGO (ROT),0,369
020670,38.650887,-9.189574,SOBREDA (EN10-1) 202 TEXUGO (ROTUNDA),1,370
020555,38.647519,-9.201587,LAZARIM EN10-1 (X) COSTA (CAMPO FLORES),0,371
020707,38.647338,-9.202352,LAZARIM (R AREEIRO) ROTUNDA CAMPO FLORES,0,373
020669,38.651056,-9.189644,SOBREDA (EN10-1) 202 TEXUGO (ROTUNDA),1,374
020522,38.658494,-9.174028,FEIJÓ (ALMADA FÓRUM) TRASEIRAS,1,376
020779,38.645489,-9.207383,VILA NOVA CAPARICA R VASCO GAMA PARQUE,0,377
020521,38.658632,-9.173934,FEIJÓ (ALMADA FÓRUM) TRASEIRAS,0,378
020595,38.652754,-9.185935,ALTO ÍNDIO (ESTR ALTO ÍNDIO 2),1,379
020953,38.654450,-9.188239,ALTO ÍNDIO (QTA PERFUME) R PADRE ROB SEQ,0,380
020523,38.659524,-9.176332,FEIJÓ R HENRIQUE MOTA (ALMADA FÓRUM),0,381
020524,38.659319,-9.176396,FEIJÓ R HENRIQUE MOTA (ALMADA FÓRUM),0,383
020433,38.654273,-9.218157,FUNCHALINHO (NÓ),1,385
020431,38.658635,-9.196976,(IC20) SERRADO DPS POSTO ABASTECINENTO,0,386
020600,38.654978,-9.178406,FEIJÓ (VALE MOURELOS 3),0,387
020599,38.654871,-9.178316,FEIJÓ (VALE MOURELOS 3),1,388
020598,38.653980,-9.183317,R ALTO ÍNDIO4 (POLIDESPORTIVO),0,389
020529,38.656451,-9.170337,FEIJÓ (ZONA INDUSTRIAL) CEMITÉRIO,1,390
020601,38.656485,-9.173041,FEIJÓ (EXTERNATO/ CEMITÉRIO),1,391
020701,38.655901,-9.172792,FEIJÓ (CEMITÉRIO) EXTERNATO,0,392
020597,38.654127,-9.183023,R ALTO ÍNDIO4 (POLIDESPORTIVO),1,393
020519,38.656731,-9.170693,FEIJÓ (ZONA INDUSTRIAL) CEMITÉRIO,0,394
020121,38.656735,-9.172456,FEIJÓ (CEMITÉRIO),1,395
020512,38.651786,-9.160508,FEIJÓPÇA FRANCISCO TABORDA (PARQUE/ROT),1,396
020943,38.660206,-9.156882,LARANJEIRO (AV 23 JULHO 343B),1,397
020500,38.663951,-9.159742,LARANJEIRO (AV 23 JULHO),1,398
020501,38.660561,-9.158193,LARANJEIRO R CRUZ VERMELHA 7A (ESCOLA),0,399
020510,38.653329,-9.157933,LARANJEIRO (R ISID FERREIRA) FARMÁCIA,0,400
020511,38.651567,-9.160373,FEIJÓPÇA FRANCISCO TABORDA (PARQUE/ROT),1,401
020502,38.660734,-9.158156,LARANJEIRO R CRUZ VERMELHA 7A (ESCOLA),0,402
020865,38.654067,-9.154515,LARANJEIRO (PÇA LOPES GRAÇA 13B),1,403
020509,38.653190,-9.158271,LARANJEIRO (R ISID FERREIRA) FARMÁCIA,1,404
020871,38.667518,-9.157125,BARROCAS (R UNIÃO PIEDENSE),0,405
020867,38.661734,-9.154926,BARROCAS (R UNIÃO PIEDENSE 132),1,406
020857,38.660939,-9.154927,LARANJEIRO (R D JOSÉ C MELO) DEPÓS ÁGUA,0,407
020854,38.665847,-9.156128,BARROCAS (R UNIÃO PIEDENSE 69B),0,408
020855,38.663897,-9.155717,BARROCAS (R UNIÃO PIEDENSE),1,409
020680,38.658901,-9.154370,R D JOSÉ CARLOS DE MELO (ESCOLA NAVAL),0,410
020679,38.658650,-9.154489,R D JOSÉ CARLOS DE MELO (ESCOLA NAVAL),0,411
020853,38.666405,-9.156616,BARROCAS (R UNIÃO PIEDENSE 69B),0,412
020869,38.664614,-9.155701,BARROCAS (R UNIÃO PIEDENSE 80),1,413
020763,38.669591,-9.152518,COVA PIEDADE (LARGO ROMEIRA) TERMINAL,0,414
020646,38.646529,-9.219641,STO ANTÓNIO CAPUCHOS (EN10-1) 703,0,415
020645,38.646447,-9.219628,STO ANTÓNIO CAPUCHOS (EN10-1) 703,1,416
020644,38.647231,-9.223779,CAPUCHOS (EN10-1) 738 (ROTUNDA),1,417
020649,38.644513,-9.211156,VILA NOVA CAPARICA (EN 10-1 601) CENTRO,0,418
020637,38.640597,-9.230326,COSTA CAPARICA (TORRE ARGOLAS) TER P1,1,419
020650,38.644626,-9.211064,VILA NOVA CAPARICA (EN 10-1 601) CENTRO,0,420
021017,38.640380,-9.230208,COSTA CAPARICA (TORRE DAS ARGOLAS) TER P2,1,421
020643,38.647195,-9.224160,CAPUCHOS (EN10-1) 738 (ROTUNDA),1,422
020659,38.646183,-9.216735,ESTRELINHA (EN10-1 674) QTA ESTRELINHA,1,423
020735,38.640560,-9.230441,COSTA CAPARICA (TORRE DAS ARGOLAS) TER P4,1,424
020697,38.653797,-9.147454,LARANJEIRO (R BENTO JESUS CARAÇA 48),0,427
020691,38.654618,-9.152719,LARANJEIRO (R D MANUEL 11) ESTACIONA,1,429
020689,38.655499,-9.149439,LARANJEIRO (R BENTO JESUS CARAÇA 33A),1,433
020683,38.651015,-9.153171,LARANJEIRO (AV 23 JULHO) TST,1,434
020999,38.575839,-9.193253,FONTE TELHA ESTR MILITAR-BRIGADA FISCAL,1,435
020539,38.669861,-9.233130,TRAFARIA N377-1 (X) R 1º MAIO (ESCOLA),0,436
020373,38.665134,-9.218028,COVA (EN377-1) QTA MORGADOS,0,437
020992,38.644594,-9.241013,COSTA CAPARICA (TERMINAL P1),0,438
020463,38.657185,-9.240184,AV AFONSO ALBUQUERQUE (ROTUNDA INATEL),0,439
020471,38.657829,-9.240276,AV AFONSO ALBUQUERQUE (ROTUNDA INATEL),0,440
020573,38.660521,-9.241691,S JOÃO CAP (EN10-1) AV AFONSO ALBUQ 129,0,441
020571,38.660483,-9.241955,S JOÃO CAP (AV AFONSO DE ALBUQ 129),0,442
020469,38.653203,-9.237762,AV AFONSO ALBUQUERQUE (CAMPISMO),0,444
020375,38.667049,-9.223387,MURFACEM QTA ZACARIAS (X) R LIBERDADE,0,445
020393,38.662936,-9.212126,EN10-1 (X) PERA,1,446
020371,38.663306,-9.212663,EN10-1 (X) PERA,1,447
020551,38.669862,-9.232481,TRAFARIA (R ARTILHARIA COSTA)POSTO ABAST,0,448
020559,38.670733,-9.236305,TRAFARIA (R ARTILHARIA COSTA) GNR,0,449
020308,38.665613,-9.195096,MTE CAPARICAAV TORRADO SILVA (X) FOMEGA,1,450
020577,38.665134,-9.242547,TRAFARIA (EN 10-1) S PEDRO TRAFARIA 123,0,451
020376,38.667169,-9.223360,MURFACEM QTA ZACARIAS (X) R LIBERDADE,0,452
020437,38.645182,-9.237104,AV 1º DE MAIO 19,0,453
020453,38.650919,-9.236828,COSTA CAP (EN10-1 217) AV AF ALBUQ N219,0,454
020467,38.648563,-9.236183,COSTA CAPARICA (R MANUEL AGRO FAR N50),0,455
020561,38.668701,-9.239165,TRAFARIA AV AF ALBUQ (EN10-1) B PESCAD,0,456
020575,38.662834,-9.242930,COSTA CAPARICA (EN10-1) CAMPO PEPITA,0,457
020391,38.665115,-9.218937,EN10-1 (QTA GUEDES),0,459
020568,38.665343,-9.246194,CV VAPOR R MÁRIO VIEGAS (PORTÃO MAR),0,460
020361,38.665362,-9.194749,MTE CAP AV TIMOR LOR (METRO) (X) FOMEGA,1,461
020454,38.651064,-9.236626,COSTA CAP (EN10-1 217) AV AF ALBUQ N219,0,462
020378,38.664466,-9.226248,EN10-1 (QTA RIBEIRO) SANTA,0,463
020579,38.669082,-9.238567,TRAFARIA (EN10-1) B PESCADORES (ESCOLA),0,464
020560,38.670403,-9.236037,TRAFARIA (R ARTILHARIA COSTA) GNR,0,465
020306,38.666471,-9.194591,MTE CAP R CON MAN LUIS FERN (X) R FACHO,0,466
020452,38.648367,-9.235484,COSTA CAP AV AF ALBUQ 8A (X) R MACAU,0,467
020367,38.664884,-9.198986,MTE CAP AV T LOROSAE (X) PORTO BRANDÃO,0,468
020565,38.662182,-9.242847,COSTA CAPARICA (EN10-1 AV AF ALBUQ113),0,469
020563,38.665195,-9.242847,TRAFARIA (EN 10-1) AV AFONSO ALBUQ 123,0,470
020396,38.663686,-9.206065,TORRE CAPARICA (EN 10-1) (X) FACULDADE,0,471
020465,38.654502,-9.238710,AV AFONSO ALBUQUERQUE (CAMPISMO),0,472
020380,38.667999,-9.229190,EN10-1 (23A),0,473
020369,38.663785,-9.206646,EN10-1 (QTA TORRINHA) GRAND AUDITÓRIO,0,474
020379,38.667969,-9.229337,EN10-1 (23A),0,476
029005,38.648413,-9.236107,COSTA CAPARICA (R MANUEL AGRO FAR N50),0,477
020438,38.645204,-9.236650,AV 1º DE MAIO 19,0,478
020314,38.664083,-9.203481,MTE CAP AV T LOROSAE (X) PORTO BRANDÃO,1,479
020264,38.669169,-9.189521,Bº F FOMENTO (R MOINHO R43),0,480
020295,38.670408,-9.181053,BAIRRO FUNDO FOMENTO R 3 VALES (ESCOLA),0,481
020271,38.670754,-9.178177,B COR ROSA EST CASQUILHO 3 (MATADOURO),0,482
021005,38.666465,-9.186991,Bº F FOMENTO (R S LOURENÇO 52) POENTE,1,483
021003,38.666071,-9.184644,Bº F FOMENTO (R BELA VISTA 31),1,484
020272,38.670683,-9.178501,B COR ROSA EST CASQUILHO 3 (MATADOURO),0,485
020269,38.670614,-9.180348,Bº F FOMENTO (R 3 VALES) QUINTA ROSA,0,486
021004,38.665971,-9.185129,Bº F FOMENTO (R BELA VISTA 31),0,487
020268,38.669011,-9.183454,Bº F FOMENTO (R 3 VALES N35),0,488
020261,38.671151,-9.189939,Bº F FOMENTO (R MOINHO N11),0,489
020263,38.669063,-9.189671,Bº F FOMENTO (R MOINHO R43),1,490
020653,38.668841,-9.185520,Bº F FOMENTO (R 3 VALES N44),0,491
020262,38.671174,-9.190110,Bº F FOMENTO (R MOINHO N11),0,492
020267,38.669140,-9.183528,Bº F FOMENTO (R 3 VALES N35),0,493
021002,38.667224,-9.182473,Bº F FOMENTOR BELA VISTA (X) R ALCANIÇA,0,494
020273,38.667741,-9.181370,Bº COR ROSA (R BELA VISTA 4),0,495
020265,38.668699,-9.185000,Bº F FOMENTO (R 3 VALES N45),0,496
020254,38.667425,-9.191208,Bº F FOMENTO R 3 VALES (ESCOLA BÁSICA),1,497
020255,38.667599,-9.188372,Bº F FOMENTO (R 3 VALES N65),1,498
021001,38.667156,-9.182348,Bº F FOMENTOR BELA VISTA (X) R ALCANIÇA,0,499
020397,38.663637,-9.189214,MTE CAPARICA AV TORRADO SILVA (ROT),0,500
020075,38.663828,-9.190138,AV TORRADO DA SILVA BOA ESPERANÇA,1,501
020253,38.667621,-9.191095,Bº F FOMENTO R 3 VALES (ESCOLA BÁSICA),1,502
020293,38.667910,-9.180752,Bº COR ROSA (R BELA VISTA 3),0,503
020843,38.673847,-9.207192,PORTO BRANDÃO (R 1º MAIO N4),0,504
020847,38.666375,-9.205156,ESTRADA PORTO BRANDÃO (R 5 OUT) 150,0,505
020846,38.669271,-9.205941,PORTO BRANDÃO (LARGO CARLOS MAIA 7A),1,506
020839,38.677890,-9.206680,PORTO BRANDÃO (CAIS) TERMINAL,1,507
020844,38.673885,-9.207102,PORTO BRANDÃO (R 1º MAIO N4),0,508
020848,38.666222,-9.205010,ESTRADA PORTO BRANDÃO (R 5 OUT) 150,0,509
020842,38.676017,-9.207081,PORTO BRANDÃO (R 1º MAIO 65),1,510
020845,38.669377,-9.205773,PORTO BRANDÃO (LARGO CARLOS MAIA 7A),1,511
020303,38.667648,-9.194661,MONTE CAPARICA R CON M FERNANDES 62,0,512
020304,38.667595,-9.194751,MONTE CAPARICA R CON M FERNANDES 62,0,513
020302,38.669731,-9.195341,MTE CAP R CON MAN LUIS FERN (CLUBE REC),0,514
020299,38.674169,-9.197384,MONTE CAPARICA (R CON M FERNANDES 62),1,515
020309,38.664560,-9.197155,MTE CAP R TRAB RURAIS (ROTUNDA),1,516
020311,38.663810,-9.198284,MTE CAPARICA (LARGO CANDIDO REIS 76),0,517
020359,38.662604,-9.198585,MTE CAPARICA R ALFREDO CUNHA (ESCOLA),1,518
020310,38.664489,-9.196985,MTE CAP R TRAB RURAIS (ROTUNDA),1,519
020301,38.669788,-9.195245,MTE CAP R CON MAN LUIS FERN (CLUBE REC),0,520
020586,38.647618,-9.196478,SOBREDA R J F DIAS 25 (X) QTA FRANCESA,1,521
020321,38.646205,-9.199520,LAZARIM (R S MACÁRIO772)QTA S FRANCISCO,1,522
020667,38.650244,-9.193704,SOBREDA EN10-1 X R QTA FRANCESA 4,1,523
020583,38.647442,-9.198149,LAZARIM (EN 10-1) (X) VALE FIGUEIRA,1,524
029002,38.646684,-9.198381,Lazarim (Rua do Movimento das Forças Armadas),0,526
029001,38.646537,-9.198270,Lazarim (Rua do Movimento das Forças Armadas),0,528
020668,38.650301,-9.193848,SOBREDA EN10-1 X R QTA FRANCESA 4,0,529
020605,38.647016,-9.192566,SOBREDA (R JAIME FERREIRA DIAS 5),1,530
020584,38.647137,-9.198329,LAZARIM (EN 10-1) (X) VALE FIGUEIRA,1,531
020515,38.653096,-9.165690,FEIJÓ (R ALEMBRANÇA 29C),1,532
020517,38.655071,-9.166592,FEIJÓ (MERCADO LEVANTE) AV DR ANT ELVAS,1,536
020961,38.650559,-9.159781,FEIJÓ (R FRANCISCO ALMEIDA 21),0,537
020089,38.656751,-9.162570,FEIJÓ (R ANTÓNIO ALEIXO N6),0,538
020097,38.662300,-9.163374,Bº GONÇALVES R ALM NEG 4 (ESCOLA),0,539
020963,38.649158,-9.159411,FEIJÓ (R FRANCISCO ALMEIDA N50),0,540
020504,38.659238,-9.159527,FEIJÓ (ALAMEDA G JUNQUEIRO 25B),0,541
020969,38.648492,-9.160211,FEIJÓ (R MÁRIO A GOMES 64),0,542
020971,38.649274,-9.160995,FEIJÓ (R VILA SEIXAL 13),0,543
020513,38.651961,-9.162770,FEIJÓ (R ALEMBRANÇA) ESCOLA 2 3 CICLO,0,544
020093,38.659901,-9.161929,Bº B GONÇALVES (R ARY SANTOS 4B),1,545
020095,38.660876,-9.163652,R AMADEU SOUSA CARDOSO (ESCOLA),0,546
020503,38.659425,-9.159353,FEIJÓ (ALAMEDA G JUNQUEIRO 25B),0,548
020671,38.654753,-9.163392,FEIJÓ (R DR ANT ELVAS 108) FARMÁCIA,0,550
020090,38.656773,-9.162890,FEIJÓ (R ANTÓNIO ALEIXO N6),1,551
020091,38.658300,-9.161702,R ARY SANTOS 16 - C.COMERCIAL,1,552
020672,38.654611,-9.163166,FEIJÓ (R DR ANT ELVAS 108) FARMÁCIA,1,553
020862,38.653957,-9.161562,FEIJÓ (R CLUBE RECREAT FEIJÓ),0,554
020518,38.655163,-9.166505,FEIJÓ (MERCADO LEVANTE) AV DR ANT ELVAS,0,555
020861,38.653973,-9.161426,FEIJÓ (R CLUBE RECREAT FEIJÓ),0,556
020531,38.651855,-9.163281,FEIJÓ (R ALEMBRANÇA) ESCOLA 2 3 CICLO,0,557
020457,38.654730,-9.235827,COSTA CAPARICA (AV OCEANO N10),0,558
020458,38.654625,-9.235944,COSTA CAPARICA (AV OCEANO N10),0,559
020439,38.642657,-9.237410,AV GENERAL HUMBERTO DELGADO,0,562
020462,38.658369,-9.240096,COSTA CAPARICA (R MIGUEL TORGA 2),0,563
020456,38.652143,-9.234923,COSTA CAPARICA (AV MAR N22),0,564
020460,38.656257,-9.236833,C CAP AV OCEANO (X) R O E SERPA (ESCOLA),0,565
020461,38.658298,-9.239866,COSTA CAPARICA (R MIGUEL TORGA 2),0,566
020459,38.656314,-9.236688,C CAP AV OCEANO (X) R O E SERPA (ESCOLA),0,567
020455,38.652078,-9.234764,COSTA CAPARICA (AV MAR N22),0,568
020440,38.642593,-9.237507,AV GENERAL HUMBERTO DELGADO,0,569
020442,38.638433,-9.234111,AV GENERAL HUMBERTO DELGADO (LOTA COSTA),0,570
020941,38.671232,-9.177816,PRAGAL (ESTR CASQUILHO) Bº MATADOURO,1,571
020525,38.660869,-9.181543,VL MOURELOS R ANT CALADO (X) R QTA SEC,0,572
020526,38.660966,-9.181798,VL MOURELOS R ANT CALADO (X) R QTA SEC,0,573
020528,38.659633,-9.187253,VL MOURELOS R ANTÓNIO CALADO (ROTUNDA),0,574
020820,38.627272,-9.218939,ESTR FONTE TELHA (X) PRAIA MATA,0,575
020822,38.628316,-9.220244,FONTE TELHA (ESTR F TELHA 223),0,576
020824,38.629421,-9.221411,FONTE TELHA (ESTR F TELHA 3),0,577
020811,38.615171,-9.210729,ESTR FONTE TELHA (X) PRAIA CASTELO,0,578
020167,38.612126,-9.195038,CH CAPARICA (R PRESIDENTE ARRIAGA 72),0,579
020829,38.633020,-9.225010,ESTR F TELHA 143 (PQ CAMP ALMADA),0,580
020339,38.615373,-9.191165,CH CAPARICA R ANTÓNIO ANDRADE CLINICA,0,581
020828,38.631842,-9.223755,ESTR F TELHA (X) PRAIA SAÚDE,0,582
020825,38.630494,-9.222347,ESTR F TELHA (X) PQ CAMP PIEDENSE,0,583
020417,38.617301,-9.194124,CASAL POÇO (R JOSÉ ESTEVÃO N4),1,584
020418,38.617255,-9.194221,CASAL POÇO (R JOSÉ ESTEVÃO N4),1,585
020814,38.617767,-9.212524,ESTR F TELHA (X) PRAIA RAINHA II,0,586
020338,38.617290,-9.192521,CH CAPARICA (R ANTÓNIO ANDRADE) CENTRO,1,587
020819,38.627054,-9.218930,ESTR FONTE TELHA (X) PRAIA MATA,0,588
020949,38.610104,-9.196395,CH CAPARICA (R VALE CAVALA 18),0,589
020832,38.634580,-9.226940,ESTR FLOREST (X) PQ CAMP (ESTR F TELHA),0,590
020823,38.629523,-9.221330,FONTE TELHA (ESTR F TELHA 3),0,591
020950,38.610004,-9.196328,CH CAPARICA (R VALE CAVALA 18),0,592
020826,38.630197,-9.222207,ESTR F TELHA (X) PQ CAMP PIEDENSE,0,593
020809,38.610967,-9.207664,ESTR F TELHA (X) PRAIA PESCADOR,0,594
020830,38.632923,-9.225138,ESTR F TELHA 143 (PQ CAMP ALMADA),0,595
020951,38.615154,-9.194863,CH CAPARICA (R PRESIDENTE ARRIAGA 18),0,596
020827,38.631742,-9.223831,ESTR F TELHA (X) PRAIA SAÚDE,0,597
029801,38.638258,-9.230036,COSTA CAPARICA (AV D SEBASTIÃO 76),0,598
020812,38.615388,-9.210750,ESTR FONTE TELHA (X) PRAIA CASTELO,0,599
020952,38.614991,-9.195020,CH CAPARICA (R PRESIDENTE ARRIAGA 18),0,600
029803,38.636073,-9.228368,FONTE TELHA (ESTR F TELHA),0,601
020947,38.608523,-9.198496,CH CAPARICA (R VALE CAVALA LTE 1),0,602
020948,38.608665,-9.198637,CH CAPARICA (R VALE CAVALA LTE 1),0,603
029802,38.636076,-9.228236,FONTE TELHA (ESTR F TELHA 7),0,604
020817,38.624039,-9.215957,ESTR FONTE TELHA (X) PRAIA RIVIERA,0,605
020821,38.628371,-9.220085,FONTE TELHA (ESTR F TELHA 223),0,606
029800,38.638506,-9.229998,COSTA CAPARICA (AV D SEBASTIÃO 73),0,607
020168,38.612213,-9.194911,CH CAPARICA (R PRESIDENTE ARRIAGA 72),0,608
020831,38.634695,-9.226723,ESTR FLOREST (X) PQ CAMP (ESTR F TELHA),0,609
020813,38.617813,-9.212400,ESTR F TELHA (X) PRAIA RAINHA II,0,610
020810,38.610725,-9.207655,ESTR F TELHA (X) PRAIA PESCADOR,0,611
020807,38.609269,-9.205763,ESTR FONTE TELHA (PRAIA REI),0,612
020808,38.609345,-9.205720,ESTR FONTE TELHA (PRAIA REI),0,613
020709,38.644735,-9.195711,MORGADINHA (QTA V GROU) R MOV FOR ARM 85,0,614
020181,38.599665,-9.184480,MARISOL (R ANTÓNIO SOARES N10),0,627
021015,38.605399,-9.183133,CH CAPARICA (R FRED FREITAS) PAVILHÃO,0,628
020342,38.612713,-9.189537,CH CAPARICA (R ANT ANDRADE) MCDONALD´S,1,631
020331,38.628312,-9.197378,CH CAPAR R OLIVEIRA FEIJÃO (IGREJA),1,632
020229,38.592624,-9.182227,MARISOL R SOARES REIS (X) R D JOÃO II,0,633
020334,38.624836,-9.196064,CH CAPARICA R DR OLIVEIRA FEIJÃO6(ROT),1,635
020914,38.595370,-9.179057,MARISOL (R LOBITOS 57),0,636
020231,38.594761,-9.183861,MARISOL (R ANTÓNIO SOARES N74),0,638
020232,38.594814,-9.183744,MARISOL (R ANTÓNIO SOARES N74),0,639
020341,38.612940,-9.189512,CH CAPARICA (R ANT ANDRADE) MCDONALD´S,1,640
020182,38.599652,-9.184585,MARISOL (R ANTÓNIO SOARES N10),0,641
020343,38.611158,-9.188686,CH CAPARICA (R ANTANDRADE) PISCINAS MUN,0,642
020336,38.620481,-9.194228,CH CAPARICA R DR OLIVEIRA FEIJÃO 1074,1,643
020912,38.598839,-9.178411,MARISOL (R MANUEL FEVEREIRO N5),0,644
020333,38.624739,-9.196147,CH CAPARICA R DR OLIVEIRA FEIJÃO6(ROT),0,645
020911,38.598997,-9.178391,MARISOL (R MANUEL FEVEREIRO N5),0,646
020230,38.592785,-9.181686,MARISOL R SOARES REIS (X) R D JOÃO II,0,647
020913,38.595450,-9.179025,MARISOL (R LOBITOS 57),0,648
020332,38.627694,-9.197296,CH CAPAR R OLIVEIRA FEIJÃO (IGREJA),1,650
020419,38.607558,-9.186911,CH CAP R ANT ANDR (X) R DO PINHEIRINHO,1,652
020179,38.601176,-9.186860,CH CAPARICA (R PEDRO COSTA) TREMOCEIRA,1,653
020705,38.640496,-9.230573,COSTA CAPARICA (TORRE DAS ARGOLAS) TER P5,1,658
020134,38.646315,-9.169408,VALE FLORES (R PITEIRA SANTOS 5A) Z INDUST,0,659
020195,38.643724,-9.173081,VL FIGUEIRA (R VL FIGUEIRA) CENTRO HIP,0,660
020619,38.642460,-9.174295,VL FIGUEIRA R GEN HUMB DELG (X) R POVO,1,661
020133,38.646397,-9.169312,VALE FLORES (R PITEIRA SANTOS 5A) Z INDUST,0,664
020611,38.646199,-9.175080,SOBREDA (EN10-1) PISTA MUNCIP ATLETISMO,1,665
020915,38.642533,-9.169610,VL FIGUEIRA (EN10-1 KM 1 700),1,666
020136,38.644692,-9.171691,VALE FIGUEIRA (EN 10-1) ENTRE ROTUNDAS,0,670
020614,38.648469,-9.178406,SOBREDA (EN10-1 7A) Bº S JOÃO,1,672
020603,38.647980,-9.183472,SOBREDA AV REPÚBLICA (C C V ATLÂNTICO),0,674
020135,38.644627,-9.170929,VALE FIGUEIRA (EN 10-1) ENTRE ROTUNDAS,1,675
020615,38.647840,-9.184931,SOBREDA (R MANUEL PARADA) ESCOLA SEC,0,676
020613,38.648547,-9.178273,SOBREDA (EN10-1 7A) Bº S JOÃO,0,678
020591,38.648754,-9.183686,SOBREDA (EN10-1) QTA DA CANEIRA,1,679
020592,38.648598,-9.183576,SOBREDA (EN10-1) QTA DA CANEIRA,1,681
020131,38.646777,-9.171545,VALE FLORES (R V FLORES N4),1,682
020916,38.642450,-9.169318,VL FIGUEIRA (EN10-1 KM 1 700),0,683
020328,38.636397,-9.202961,BOTEQUIM (R BOTEQUIM 872B),0,693
020323,38.642094,-9.200580,LAZARIM R S MACÁRIO (X) R HUMB MADEIRA,0,694
020715,38.640471,-9.185482,QTA CERIEIRA (R MOV F ARMADAS 96),0,695
020712,38.642095,-9.193058,VALE GROU (R MOV F ARMADAS) CENTRO SAÚDE,0,696
020851,38.625656,-9.200732,CH CAP (PALHAIS R HENR SANTANA 63A),0,697
020837,38.625762,-9.202466,QTA TEXUGO (R HELENA FÉLIX N5),0,698
020833,38.625664,-9.203362,QTA TEXUGO (R HELENA FÉLIX 73),0,699
020145,38.639520,-9.181233,VALE FIGUEIRA R DR A ARAÚJO (ESCOLA),1,700
020164,38.629444,-9.198835,R RUI FURTADO (ROTUNDA),0,701
020185,38.629728,-9.198599,CH CAPARICA (R ELIAS GARCIA) MONSERRATE,1,702
020711,38.642136,-9.192910,VALE GROU (R MOV F ARMADAS) CENTRO SAÚDE,0,703
020351,38.642331,-9.200369,LAZARIM R S MACÁRIO (X) R HUMB MADEIRA,0,704
020349,38.638803,-9.201581,BOTEQUIM (QTA REGATEIRA 3D),0,705
020347,38.633745,-9.202008,R BOTEQUIM (CIMO R A-VER-O-MAR),0,706
020327,38.636247,-9.202827,BOTEQUIM (R BOTEQUIM 872B),0,707
020348,38.632707,-9.201728,BOTEQUIM (AV ELIAS GARCIA 910),0,709
020923,38.639626,-9.182169,QTA CERIEIRA R QTA CERIEIRA 52(ESCOLA),0,710
020716,38.640458,-9.185671,QTA CERIEIRA (R MOV F ARMADAS 96),0,711
020161,38.630310,-9.196853,CH CAPARICA (R RAMADA CURTO 13),0,712
020713,38.641133,-9.187135,QTA CERIEIRA (R MOV F ARMADAS 120),0,713
020714,38.641347,-9.187564,QTA CERIEIRA (R MOV F ARMADAS 120),0,714
020325,38.638564,-9.202076,LAZARIM (QTA REGATEIRA N15),0,715
020849,38.626629,-9.199397,CH CAP (PALHAIS R HENR SANTANA) C SAÚDE,1,716
020183,38.623269,-9.199458,CH CAPARICA ROT ALAM AMÁLIA RODRIGUES3,0,717
020155,38.628985,-9.187888,VL FETAL ESTR BELA VISTA (X) R CRIS LOPES,0,718
020149,38.634253,-9.178814,VL FIGUEIRA (ESTR BELA VISTA) CM ALMADA,0,719
020147,38.636052,-9.176480,VL FIGUEIRA (R VL FIGUEIRA) POSTO ABAST,1,720
020852,38.625735,-9.200522,CH CAP (PALHAIS R HENR SANTANA 63A),0,721
020189,38.631156,-9.193478,CH CAPA ESTR BELA VISTA 179 (X) QTA NOVA,0,722
020151,38.632058,-9.181773,VALE FETAL (ESTR BELA VISTA 60),0,723
020193,38.635396,-9.176718,VL FIGUEIRA (R VL FIGUEIRA) POSTO ABAST,1,724
020150,38.634163,-9.178855,VL FIGUEIRA (ESTR BELA VISTA) CM ALMADA,0,725
020850,38.626658,-9.199500,CH CAP (PALHAIS R HENR SANTANA) C SAÚDE,0,726
020153,38.629156,-9.184167,ESTR BELA VISTA 100 ROT MARCO GEODÉSICO,0,728
020157,38.630925,-9.191060,VALE FETAL ESTR BELA VISTA 186 (ESCOLA),0,729
020191,38.631329,-9.181831,VL FETAL ESTR BELA VISTA 71 (ROTUNDA),0,730
020158,38.630979,-9.190979,VALE FETAL ESTR BELA VISTA 186 (ESCOLA),0,731
020156,38.628797,-9.187624,VL FETAL ESTR BELA VISTA (X) R CRIS LOPES,0,732
020160,38.631329,-9.193013,CH CAP ESTR B VISTA 206 (X) QTA NOVA,0,734
020154,38.629300,-9.184182,ESTR BELA VISTA 100 ROT MARCO GEODÉSICO,0,735
020997,38.577806,-9.186535,F TELHA (AV MAR 223 (X) AV E MONIZ(GOLF),0,736
020993,38.582174,-9.175557,AROEIRA (AV MAR N121),0,738
020996,38.578975,-9.183599,AROEIRA (AV MAR 168),0,739
020994,38.581941,-9.176407,AROEIRA (AV MAR N121),0,740
020995,38.578948,-9.183926,AROEIRA (AV MAR 168),0,741
020906,38.586614,-9.164386,AV BELVERDE (X) AV PINHAL AROEIRA,0,743
020905,38.586631,-9.164613,AV BELVERDE (X) AV PINHAL AROEIRA,0,744
020246,38.584336,-9.170383,AV MAR (X) R JOSÉ MALHOA (ROT),0,746
020478,38.591553,-9.191101,CH CAPARICA (R D JOÃO V 120),0,747
020482,38.585909,-9.194118,EN377 (PINHAL REI) ANTES (X),0,748
020481,38.586242,-9.193915,EN377 (PINHAL REI) ANTES (X),0,749
020479,38.589102,-9.192900,CH CAPARICA (R D JOÃO V 137),0,750
020475,38.594945,-9.188525,CH CAPARICA (R D JOÃO V 62),0,751
020476,38.594981,-9.188362,CH CAPARICA (R D JOÃO V 62),0,752
020480,38.588998,-9.192851,CH CAPARICA (R D JOÃO V 137),0,753
020548,38.661551,-9.235705,QTA RAPOSEIRA (R BELA VISTA 250),0,754
020545,38.659686,-9.231139,QTA CORVINA ESTR MILITAR 65 (X) R VINHA,0,755
020543,38.661221,-9.231677,QTA CORVINA (ESTR MILITAR),0,756
020541,38.664808,-9.231196,TRAFARIA ESTR MILITAR (X) ESC BÁSICA,0,757
020558,38.669514,-9.231769,TRAFARIA (ESTR MILITAR) QRT MILITAR 15,0,758
020557,38.669484,-9.231889,TRAFARIA (ESTR MILITAR) QRT MILITAR 15,0,760
020546,38.659710,-9.231266,QTA CORVINA ESTR MILITAR 65 (X) R VINHA,0,761
020542,38.664823,-9.231336,TRAFARIA ESTR MILITAR (X) ESC BÁSICA,0,762
020726,38.646584,-9.167014,FEIJÓ ESTR ALGAZARRA (PONTE),0,763
020123,38.653145,-9.173877,VL FLORES (R V FLORES 45A) ESC PRIMÁRIA,1,764
020727,38.649155,-9.165787,FEIJÓ ESTR ALGAZ (X) R FERREIRA SOARES,0,765
020725,38.646850,-9.166961,FEIJÓ ESTR ALGAZARRA (PONTE),0,766
020128,38.649837,-9.172844,VALE FLORES (R V FLORES N93),0,768
020125,38.651045,-9.174387,VALE FLORES (R V FLORES 77) DESCIDA,0,769
020728,38.649035,-9.165904,FEIJÓ ESTR ALGAZ (X) R FERREIRA SOARES,0,770
020127,38.649931,-9.172826,VALE FLORES (R V FLORES N93),1,771
020129,38.648628,-9.171643,VALE FLORES (R V FLORES) TÚNEL/ROTUNDA,0,772
020731,38.645654,-9.168377,FEIJÓ (ESTR ALGAZARRA) DESCIDA G BRAVO,0,773
020879,38.610522,-9.179663,QUINTINHAS R QTA CIMA (X) R 1º MAIO,1,774
020880,38.610359,-9.179725,QUINTINHAS R QTA CIMA (X) R 1º MAIO,0,775
020975,38.607700,-9.182172,PINHEIRINHO (R TREVO 4),0,776
020907,38.614839,-9.175156,VL MILHAÇOS R QTA CIMA (X) QTA QUEIMADA,0,777
020885,38.608089,-9.182564,CH CAPARICA (R PINHEIRINHO N51),0,778
020143,38.643485,-9.182378,R HENRIQUE ALVES X R POVO,0,780
020144,38.643600,-9.182494,R HENRIQUE ALVES X R POVO,0,781
020621,38.639746,-9.175802,VL FIG R VL FIGUEIRA (X) R LUSÍADAS,1,782
020607,38.637753,-9.175312,VL FIGUEIRA (R VL FIGUEIRA) CABINE EDP,1,783
020029,38.682220,-9.154460,ALMADA (R BERNARDO FRANCISCO COSTA 13),0,822
020088,38.659200,-9.173259,FEIJÓ (ALMADA FÓRUM),1,827
020389,38.671037,-9.231776,TRAFARIA (R LIBERDADE N46),0,834
020381,38.670927,-9.230991,TRAFARIA (AV BULHÃO PATO N67),0,835
020387,38.672702,-9.232256,TRAFARIA (R LIBERDADE N10),0,836
020383,38.672596,-9.231089,TRAFARIA (AV BULHÃO PATO N29),0,837
020596,38.652794,-9.186070,ALTO ÍNDIO (ESTR ALTO ÍNDIO 2),0,847
021019,38.668057,-9.164770,CV PIEDADE R SAMEIRO ANTUNES FARMÁCIA,1,923
020859,38.655006,-9.155013,LARANJEIRO (R BORGES REGO 7A),1,934
020505,38.657493,-9.158292,FEIJÓ (R CASTANHEIROS N13B) JARDIM,0,935
020508,38.654615,-9.157866,FEIJÓ R CASTANHEIROS 39 (ESP CIDADÃO),0,936
020507,38.654786,-9.157772,FEIJÓ R CASTANHEIROS 39 (ESP CIDADÃO),0,937
020506,38.657370,-9.158332,FEIJÓ (R CASTANHEIROS N13B) JARDIM,0,938
020687,38.654058,-9.147464,LARANJEIRO (R BENTO JESUS CARAÇA 55),1,941
020385,38.673839,-9.231582,TRAFARIA (LGO PORTO LISBOA) TERMINAL,0,942
029999,38.640300,-9.230469,TORRE DAS ARGOLAS P6,1,943
020474,38.597012,-9.187725,CH CAPARICA (R D JOÃO V N38),1,948
020473,38.597073,-9.187567,CH CAPARICA (R D JOÃO V N38),1,949
020315,38.662609,-9.203309,TORRE CAPARICA (EN 10-1) (X) FACULDADE,1,950
020098,38.662249,-9.163523,Bº GONÇALVES R ALM NEG 4 (ESCOLA),0,954
020096,38.660939,-9.163335,R AMADEU SOUSA CARDOSO (ESCOLA),0,955
020197,38.655749,-9.172616,FEIJÓ (CEMITÉRIO) EXTERNATO,1,962
020130,38.648790,-9.171541,VALE FLORES (R V FLORES) TÚNEL/ROTUNDA,0,963
020124,38.653115,-9.174041,VL FLORES (R V FLORES 45A) ESC PRIMÁRIA,0,964
020011,38.678535,-9.167604,ALMADA (AV CRISTO REI) NÚCLEO ÁGUA,0,995
020344,38.610918,-9.188762,CH CAPARICA (R ANTANDRADE) PISCINAS MUN,0,1069
020720,38.638591,-9.177293,VL FIGUEIRA R HERMÍNIA SILVA (ESCOLA),0,1097
020609,38.640583,-9.175502,R VALE FIGUEIRA 81 (HOSPITAL VET),1,1098
020142,38.643881,-9.181973,R HENRIQUE ALVES X R POVO,0,1099
020722,38.640133,-9.176994,VALE FIGUEIRA (R TOMÁS ALCAIDE) Bº CHUT,0,1100
020139,38.643610,-9.178719,CASAL STO ANTÓNIO (R DO POVO),0,1101
020138,38.643075,-9.175537,RUA DO POVO 18,0,1102
020140,38.643678,-9.178364,CASAL STO ANTÓNIO (R DO POVO),0,1103
020137,38.642984,-9.175492,RUA DO POVO 18,0,1104
020721,38.640008,-9.176802,VALE FIGUEIRA (R TOMÁS ALCAIDE) Bº CHUT,1,1105
020719,38.638757,-9.177305,VL FIGUEIRA R HERMÍNIA SILVA (ESCOLA),1,1106
020141,38.643965,-9.181970,R HENRIQUE ALVES X R POVO,0,1107
020187,38.630594,-9.195508,CH CAPARICA (ESTR BELA VISTA 191),1,1328
020835,38.623892,-9.203591,QTA TEXUGO (R HEL FÉLIX 30) CASSAPO,0,1348
020087,38.659255,-9.172975,FEIJÓ (ALMADA FÓRUM),0,1349
020967,38.645705,-9.205427,PILOTOS (R NUNO TRISTÃO) ESCOLA BÁSICA,0,1366
020977,38.607765,-9.186170,PINHEIRINHO (R CIDADE M DOURO LTE 79),0,1369
020617,38.648257,-9.183246,SOBREDA AV REPÚBLICA (CENTRO COMERCIAL),0,1375
020073,38.666696,-9.179479,PRAGAL (AV JOSE C PIRES) ESTAÇÃO,0,1376
020981,38.661996,-9.162797,Bº GONÇALVES R ALM NEG 4 (ESCOLA),0,1384
020696,38.653639,-9.148997,LARANJEIRO (R D DUARTE 14A) MESQUITA,0,1385
020590,38.644650,-9.185599,SOBREDA R PETRÓ A BARROS (IGREJA),0,1394
020588,38.645749,-9.189022,SOBREDA R PETRÓNIO AMOR BARROS (J FREG),0,1395
020766,38.655157,-9.184894,ALTO ÍNDIO (R JAIME MORAIS 3),0,1399
020765,38.655351,-9.185011,ALTO ÍNDIO (R JAIME MORAIS 3),0,1400
020535,38.672685,-9.155143,COVA PIEDADE AV ALIANÇA POVO (HOSPITAL),1,1430
020085,38.678964,-9.157767,ALMADA (PÇA S JOÃO BAPTISTA) JUNTO CGD,1,1431
020245,38.583987,-9.170997,AV MAR (X) R JOSÉ MALHOA (ROT),0,1465
020170,38.609071,-9.195186,RUA DAS SARDINHEIRAS N15,0,1472
020317,38.660449,-9.202657,MONTE CAPARICA (FCT) ROTUNDA,1,7683
021007,38.687606,-9.147014,CACILHAS (LGO ALF DINIS ALEX) TER P10,1,7693
020113,38.687812,-9.147031,CACILHAS (LGO ALF DINIS ALEX) TER P9,1,7694
020959,38.687404,-9.146997,CACILHAS (LGO ALF DINIS ALEX) TER P8,1,7695
020449,38.687771,-9.146789,CACILHAS (LGO ALF DINIS ALEX) TER P1,1,7696
020403,38.687611,-9.146776,CACILHAS (LGO ALF DINIS ALEX) TER P2,1,7697
020973,38.687450,-9.146762,CACILHAS (LGO ALF DINIS ALEX) TER P3,1,7698
020489,38.687289,-9.146748,CACILHAS (LGO ALF DINIS ALEX) TER P4,1,7699
020955,38.687409,-9.146880,CACILHAS (LGO ALF DINIS ALEX) TER P7,1,7700
020429,38.687613,-9.146894,CACILHAS (LGO ALF DINIS ALEX) TER P6,1,7701
020037,38.687818,-9.146908,CACILHAS (LGO ALF DINIS ALEX) TER P5,1,7702
020180,38.601203,-9.187007,CH CAPARICA (R PEDRO COSTA) TREMOCEIRA,1,7703
020176,38.604548,-9.186980,RUA QTA DOS EUCALIPTOS N31,0,12013
020178,38.603674,-9.186201,CH CAPARICA (R PEDRO COSTA 1284) VL BEM,0,12014
020177,38.603472,-9.186375,CH CAPARICA (R PEDRO COSTA 1284) VL BEM,0,12015
020175,38.604667,-9.186910,RUA QTA DOS EUCALIPTOS N31,0,12019
020173,38.604718,-9.190970,RUA DE VERA CRUZ N49,0,12020
020174,38.604605,-9.191037,RUA DE VERA CRUZ N49,0,12021
020169,38.609102,-9.195096,RUA DAS SARDINHEIRAS N15,0,12022
020422,38.605411,-9.186394,CH CAPARICA R PEDRO COSTA 13 (ESCOLA),0,12138
020355,38.656371,-9.201172,MTE CAPARICA IC32 (X) R AREEIRO,1,12196
020544,38.661220,-9.231570,QTA CORVINA (ESTR MILITAR),0,12200
020549,38.663850,-9.236720,QTA RAPOSEIRA (R BENTO GONC N78),0,12201
020329,38.632280,-9.202729,RUA DA BELA VISTA 12,0,12202
020313,38.663868,-9.203410,MTE CAP AV T LOROSAE (X) PORTO BRANDÃO,0,12203
020346,38.611042,-9.184872,R EUGÉNIO SALVADOR 21,0,12273
020365,38.674635,-9.166965,RUA GALILEU SAÚDE CORREIA (CTT/SMAS),0,12274
020553,38.630973,-9.201508,RUA DA BELA VISTA,0,12275
020001,38.673804,-9.173993,PRAGAL (PORTAGEM),1,12289
020581,38.630888,-9.201583,RUA DA BICA,0,12292
020979,38.641331,-9.166063,CORROIOS (EN 10-1) TÚNEL/ QTA CHIADO,0,12339
020760,38.674509,-9.175088,PRAGAL (HOSPITAL G ORTA) TERMINAL,0,12340
020655,38.649953,-9.201190,RUA DO AREEIRO (FRT A33),0,12450
020657,38.648005,-9.201721,LAZARIM (R AREEIRO) ROTUNDA CAMPO FLORES,0,12451
020889,38.605460,-9.181585,CH CAPARICA (R FRED FREITAS) PAVILHÃO,0,12510
020890,38.605465,-9.181670,CH CAPARICA (R FRED FREITAS) PAVILHÃO,0,12511
020224,38.585528,-9.167500,AROEIRA (AV BELVERDE 1),0,12709
020223,38.585403,-9.167319,AROEIRA (AV BELVERDE 1),0,12710
020910,38.600688,-9.176475,MARISOL (AV FONTE TELHA N41A),0,12713
020909,38.600575,-9.176443,MARISOL (AV FONTE TELHA N41A),0,12714
020908,38.614956,-9.175233,VL MILHAÇOS R QTA CIMA (X) QTA QUEIMADA,0,12715
020987,38.635135,-9.172567,VALE FIGUEIRA (R CATARINA EUFÉMIA 5),0,12739
020988,38.634881,-9.172677,VALE FIGUEIRA (R CATARINA EUFÉMIA 5),0,12740
020585,38.647688,-9.196550,SOBREDA R J F DIAS 25 (X) QTA FRANCESA,0,12785
020527,38.659544,-9.187137,VL MOURELOS R ANTÓNIO CALADO (ROTUNDA),0,12786
020300,38.674157,-9.197267,MONTE CAPARICA (R CON M FERNANDES 62),0,12787
020841,38.675997,-9.206960,PORTO BRANDÃO (R 1º MAIO 65),0,12792
020132,38.646736,-9.171701,VALE FLORES (R V FLORES N4),0,12793
020723,38.644821,-9.169264,FEIJÓ ( Z INDUSTRIAL) DESCIDA G BRAVO,0,12794
020724,38.644901,-9.169363,FEIJÓ ( Z INDUSTRIAL) DESCIDA G BRAVO,0,12795
020965,38.646158,-9.159772,CORROIOS (R CIDADE LUANDA 86),0,12797
020966,38.646074,-9.159843,CORROIOS (R CIDADE LUANDA 86),0,12798
020516,38.652916,-9.165115,FEIJÓ (R ALEMBRANÇA 29C),0,12806
020928,38.636393,-9.183371,VL FIGUEIRA R QUINTA DA GRAÇA,0,12808
020927,38.636364,-9.183263,VL FIGUEIRA R QUINTA DA GRAÇA,0,12809
020929,38.633738,-9.183537,VALE FETAL (R SIDÓNIO PAIS 3) CAMINHO,0,12810
020930,38.633646,-9.183490,VALE FETAL (R SIDÓNIO PAIS 3) CAMINHO,0,12811
020627,38.631605,-9.182234,VALE FETALR SIDÓNIO PAIS (X) TR WANDA R,0,12812
020003,38.674141,-9.173326,PRAGAL (PORTAGEM),1,12813
020926,38.638192,-9.182874,R QUINTA DA GRAÇA 25,0,12814
020925,38.638234,-9.182961,R QUINTA DA GRAÇA 25,0,12815
020051,38.680896,-9.161599,ALMADA (R MANUEL S COUTINHO N5),0,12824
020275,38.666514,-9.180188,PRAGAL (AV TORRADO SILVA) ESTAÇÃO,1,12825
027998,38.666711,-9.180311,PRAGAL (AV TORRADO SILVA) ESTAÇÃO,1,12826
020945,38.658642,-9.155750,LARANJEIRO AV 23 JULHO (X) R ÁLAMOS,0,12827
020079,38.669886,-9.159132,COVA PIEDADE R COOPERATIVA PIEDENSE 71,0,12829
020285,38.669279,-9.162749,CV PIEDADE (R VERA CRUZ) (X) PR CEILÃO,0,12830
020589,38.644686,-9.185394,SOBREDA R PETRÓ A BARROS (IGREJA),0,12831
020780,38.645404,-9.207433,VILA NOVA CAPARICA R VASCO GAMA PARQUE,0,12832
020651,38.647541,-9.206443,LAZARIM PILOTOS EN10-1 (R BART DIAS),0,12833
029006,38.670494,-9.170764,CENTRO SAÚDE PRAGAL,0,12834
020415,38.619199,-9.196326,CASAL POÇO (R 25 ABRIL N115),0,12836
020416,38.619292,-9.196340,CASAL POÇO (R 25 ABRIL N115),0,12837
020413,38.620847,-9.198931,CASAL POÇO (R 25 ABRIL N64),0,12838
020414,38.620844,-9.199026,CASAL POÇO (R 25 ABRIL N64),0,12839
020163,38.629231,-9.199358,PALHAIS R AZINHAGA CARRETA 9 (ROTUNDA),0,12840
020377,38.664512,-9.226092,EN10-1 (QTA RIBEIRO) SANTA,0,12841
020484,38.576178,-9.193640,FONTE TELHA (BRIGADA FISCAL),0,12842
029805,38.640976,-9.231516,COSTA CAPARICA (AV D SEBASTIÃO 28),0,12843
029804,38.641299,-9.231425,COSTA CAPARICA (AV D SEBASTIÃO 25),0,12844
020665,38.645170,-9.232213,COSTA CAPARICA R DR HORÁCIO S LOURO,1,12845
020753,38.670732,-9.169197,R MARCOS DE ASSUNÇÃO 15D,0,12848
020412,38.623423,-9.198270,CH CAPARICA AL AMÁLIA RODRIGUES (ROT),0,12849
020340,38.615395,-9.191009,CH CAPARICA R ANTÓNIO ANDRADE CLINICA,0,12850
020172,38.605624,-9.194219,RUA PERO VAZ DE CAMINHA N17,0,12851
020171,38.605630,-9.194079,RUA PERO VAZ DE CAMINHA N17,0,12852
020477,38.591520,-9.190966,CH CAPARICA (R D JOÃO V 120),0,13099
020816,38.619932,-9.213728,ESTR FONTE TELHA (X) PRAIA RAINHA I,0,13100
020815,38.619843,-9.213558,ESTR FONTE TELHA (X) PRAIA RAINHA I,0,13101
020818,38.623977,-9.216027,ESTR FONTE TELHA (X) PRAIA RIVIERA,0,13102
020729,38.654449,-9.166032,FEIJÓ (MERCADO LEVANTE) AV DR ANT ELVAS,0,13103
020730,38.654492,-9.165890,FEIJÓ (MERCADO LEVANTE) AV DR ANT ELVAS,0,13104
020606,38.646899,-9.192446,SOBREDA (R JAIME FERREIRA DIAS 5),0,13105
020441,38.638494,-9.233924,AV GENERAL HUMBERTO DELGADO (LOTA COSTA),0,13106
020005,38.644755,-9.241125,Costa Caparica (Terminal P1),0,13107
020065,38.674355,-9.161752,COVA PIEDADE R LIBERDADE 56C (URPICA),0,13170
029004,38.670097,-9.158955,Cova Piedade (R Cooperativa Piedense 71),0,13171
020750,38.673914,-9.165589,COVA PIEDADE (R RAMIRO FERRÃO 26),0,13179
020745,38.674577,-9.162495,COVA PIEDADE R RAMIRO FERRÃO (URPICA),0,13180
020411,38.623258,-9.198292,CH CAPARICA AL AMÁLIA RODRIGUES (ROT),0,13371
020184,38.623512,-9.199620,CH CAPARICA ROT ALAM AMÁLIA RODRIGUES3,0,13372
020165,38.626259,-9.202367,ALAMEDA AMÁLIA RODRIGUES,0,13373
020166,38.626345,-9.202170,ALAMEDA AMÁLIA RODRIGUES,0,13374
020251,38.600595,-9.186435,CH CAPARICA (R PEDRO COSTA) TREMOCEIRA,0,13621
020186,38.629960,-9.199114,CH CAPARICA (R ELIAS GARCIA) MONSERRATE,0,13757
020980,38.641417,-9.166221,CORROIOS (EN 10-1) TÚNEL/ QTA CHIADO,0,13758
020289,38.673106,-9.172340,PRAGAL (R DIREITA PRAGAL LTE 10),0,13759
020985,38.650783,-9.161091,FEIJÓ (PÇA FRANCISCO TABORDA) ESCOLA,0,13794
020357,38.659258,-9.202832,MONTE CAPARICA (FCT) ROTUNDA,1,13848
020587,38.645795,-9.188927,SOBREDA R PETRÓNIO AMOR BARROS (J FREG),0,13849
020258,38.669308,-9.187730,R ANTÓNIO GIÃO 14,0,13851
020674,38.655991,-9.161836,FEIJÓ (R OLIVEIRA MARTINS 8),0,13856
020767,38.645552,-9.179860,R QTA DO SALGADO 29 (SOBREDA),0,13857
020931,38.629546,-9.180946,R QTA CONDE DE MASCARENHAS 22 (GNR),0,13860
020884,38.611241,-9.179602,QUINTINHAS R QTA CIMA (X) R 1º MAIO,0,13958
020345,38.610957,-9.184842,R EUGÉNIO SALVADOR 21,0,13988
020567,38.665160,-9.246249,CV VAPOR R MÁRIO VIEGAS (PORTÃO MAR),0,14103
020257,38.669283,-9.187887,R ANTÓNIO GIÃO 14,0,14188
020695,38.653799,-9.149158,LARANJEIRO (R D DUARTE 14A) MESQUITA,0,14409
020883,38.611126,-9.179565,QUINTINHAS R QTA CIMA (X) R 1º MAIO,0,14437
020305,38.666620,-9.194704,MTE CAP R CON MAN LUIS FERN (X) R FACHO,0,14702
020673,38.655817,-9.161864,FEIJÓ (R OLIVEIRA MARTINS 8),0,14918
020259,38.674380,-9.187438,Bº F FOMENTO (R MIRAD ALFAZINA) TERMINAL,0,14924
020703,38.642987,-9.232615,COSTA CAPARICA (AV D SEBASTIÃO 10),0,14950
020146,38.639449,-9.181416,VALE FIGUEIRA R DR A ARAÚJO (ESCOLA),0,14962
020932,38.629489,-9.181052,R QTA CONDE DE MASCARENHAS 22 (GNR),0,15129
020933,38.627842,-9.178889,RUA NUNO DE BRAGANÇA,0,15130
020934,38.627792,-9.178964,RUA NUNO DE BRAGANÇA,0,15131
020936,38.623191,-9.177204,RUA QTA DA MADALENA,0,15132
020935,38.623197,-9.177115,RUA QTA DA MADALENA,0,15133
020937,38.620026,-9.176094,RUA SAO CRISTÓVÃO 1,0,15134
020939,38.620756,-9.175258,RUA DAS LARANJEIRAS,0,15135
020612,38.646133,-9.175172,SOBREDA (EN10-1) PISTA MUNCIP ATLETISMO,0,19548
020676,38.656742,-9.161028,ALAMEDA GUERRA JUNQUEIRO (PAVILHÃO MUN),0,19549
020675,38.656624,-9.160898,ALAMEDA GUERRA JUNQUEIRO (PAVILHÃO MUN),0,19550
020685,38.651070,-9.148117,AV PROF RUY LUIS GOMES,0,19551
020677,38.659959,-9.156243,RUA 8 DE SETEMBRO,0,19552
020699,38.651069,-9.148325,AV PROF RUY LUIS GOMES,0,23869
020243,38.591827,-9.176628,AV ILHA DA MADEIRA 50A,0,23894
020244,38.591750,-9.176588,AV ILHA DA MADEIRA 50A,0,23895
020241,38.594792,-9.176280,R SOEIRO PEREIRA GOMES 68A,0,23896
020242,38.594712,-9.176280,R SOEIRO PEREIRA GOMES 68A,0,23897
020240,38.597391,-9.178914,R ANTÓNIO QUADROS 39 (AROEIRA),0,23898
020239,38.597288,-9.178816,R ANTÓNIO QUADROS 39 (AROEIRA),0,23899
020247,38.600657,-9.178923,R SOEIRO PEREIRA GOMES 2,0,23900
020235,38.600523,-9.178890,AV DE VALE BEM - ESC BÁSICA / ASSOCIAÇÃO,0,23901
020233,38.600494,-9.181888,AV DE VALE BEM 35,0,23902
020249,38.600626,-9.182129,AV DE VALE BEM 35,0,23903
020227,38.589100,-9.176828,AV DOM AFONSO HENRIQUES N24A,0,23904
020228,38.589058,-9.176898,AV DOM AFONSO HENRIQUES N24A,0,23905
020225,38.586488,-9.174160,AV DOM AFONSO HENRIQUES N28,0,23906
020226,38.586424,-9.173963,AV DOM AFONSO HENRIQUES N28,0,23907
021022,38.659844,-9.216606,CAMINHO DA RIBEIRA,0,25019
021023,38.658612,-9.219470,R DOUTOR JOSÉ RIBEIRO PESSOA LTE14,0,25020
021025,38.657612,-9.221310,R DOUTOR JOSÉ RIBEIRO TOSCANO PESSOA,0,25021
021021,38.659926,-9.216871,CAMINHO DA RIBEIRA,0,25022
020207,38.679528,-9.162147,ALMADA (R CAPITÃO LEITÃO N107),0,25197
020209,38.681969,-9.160487,ALMADA (R CAPITÃO LEITÃO N43A),0,25198
020205,38.680953,-9.160617,ALMADA (R CAPITÃO LEITÃO N79),0,25199
021030,38.661144,-9.214555,RUA AZINHAGA DE PÊRA 3,0,25228
021031,38.661249,-9.214349,RUA AZINHAGA DE PÊRA 12,0,25229
020547,38.661781,-9.236004,QTA RAPOSEIRA (R BELA VISTA 250),0,25230
020796,38.621388,-9.201230,AV DA EIRA,0,25231
020795,38.621384,-9.201128,AV DA EIRA,0,25232
020211,38.684088,-9.154548,R DOM JOSÉ DE MASCARENHAS N65,0,25249
020203,38.680583,-9.157703,R FERNÃO LOPES 14,0,25250
020213,38.683550,-9.153321,R FRANCISCO DE ANDRADE 1,0,25251
020215,38.684903,-9.152530,R INFANTA DONA BEATRIZ 1,0,25252
020221,38.685031,-9.150392,25 DE ABRIL,0,25253
020217,38.685292,-9.150579,R ELIAS GARCIA 36A,0,25254
020053,38.679451,-9.164261,ALMADA (R FERNÃO LOURENÇO 45) SEMINÁRIO,0,25299
020030,38.682311,-9.154336,ALMADA (R BERNARDO FRANCISCO COSTA 13),0,25300
020366,38.674624,-9.167183,RUA GALILEU SAÚDE CORREIA (CTT/SMAS),0,25311
020747,38.674385,-9.164325,R RAMIRO FERRÃO ESCOLA SEC A ANDRADE,0,25312
021063,38.671014,-9.167150,R Cidade de Ostrava 30,0,25322
021062,38.670916,-9.167059,R Cidade de Ostrava 30,0,25323
020661,38.644289,-9.233313,C CAPARICA (AV DR ARESTA BRANCO) MERCADO,0,25357
020201,38.681907,-9.155407,PRAÇA COMÉRCIO 5B (CAIS),0,25370
021072,38.682375,-9.158653,Rua Cap. Leitão 21A,0,25372
029809,38.671630,-9.169144,R Cidade de Ostrava (X) R Manuel Parada,0,25388
029806,38.672932,-9.167564,R Galileu Saúde Correia 23,0,25389
029808,38.671743,-9.169128,R Cidade de Ostrava (X) R Manuel Parada,0,25390
029807,38.672974,-9.167778,R Galileu Saúde Correia 23,0,25391
020238,38.599603,-9.178581,MARISOL (R MANUEL FEVEREIRO 5),0,25482
020002,38.643775,-9.232744,Av. Dr. Aresta Branco (X) Pç. 9 de Julho,1,-